ID,LICENSE ID,ACCOUNT NUMBER,SITE NUMBER,LEGAL NAME,DOING BUSINESS AS NAME,ADDRESS,CITY,STATE,ZIP CODE,WARD,PRECINCT,WARD PRECINCT,POLICE DISTRICT,LICENSE CODE,LICENSE DESCRIPTION,BUSINESS ACTIVITY ID,BUSINESS ACTIVITY,LICENSE NUMBER,APPLICATION TYPE,APPLICATION CREATED DATE,APPLICATION REQUIREMENTS COMPLETE,PAYMENT DATE,CONDITIONAL APPROVAL,LICENSE TERM START DATE,LICENSE TERM EXPIRATION DATE,LICENSE APPROVED FOR ISSUANCE,DATE ISSUED,LICENSE STATUS,LICENSE STATUS CHANGE DATE,SSA,LATITUDE,LONGITUDE,LOCATION
22308-20060816,1723393,29481,1,BELL OIL TERMINAL INC,Bell Oil Terminal LLC,3741 S PULASKI RD  1,CHICAGO,IL,60623,14,,14-,8,1010,Limited Business License,,,22308,RENEW,,06/21/2006,08/10/2006,N,08/16/2006,08/15/2007,08/10/2006,08/11/2006,AAI,,,41.82531993,-87.723959997,"(41.82531992987547, -87.72395999659746)"
1620668-20160516,2455262,295026,1,BUCCI BIG & TALL INC.,BUCCI BIG & TALL INC.,558 W ROOSEVELT RD,CHICAGO,IL,60607,25,28,25-28,1,1010,Limited Business License,911,Retail Sales of Clothing / Accessories / Shoes,1620668,RENEW,,03/15/2016,05/18/2016,N,05/16/2016,05/15/2018,05/18/2016,08/30/2016,AAI,,,41.867338566,-87.641590057,"(41.86733856638269, -87.64159005699716)"
2368602-20160616,2460909,291461,3,"PROJECT: VISION , INC.","PROJECT : VISION , INC",2301 S ARCHER AVE 1 1,CHICAGO,IL,60616,25,18,25-18,9,1625,Raffles,720,Not-For-Profit Selling Raffles for Prizes of $50 or More,2368602,RENEW,,04/15/2016,06/21/2016,N,06/16/2016,06/15/2017,06/21/2016,06/22/2016,AAC,08/30/2016,,41.850842944,-87.638734244,"(41.85084294374687, -87.63873424399071)"
2060891-20141016,2353257,357247,1,FOLASHADE'S CLEANING SERVICE INC.,FOLASHADE'S CLEANING SERVICE INC.,1965  BERNICE RD 1 1SW,LANSING,IL,60438,,,,,1010,Limited Business License,,,2060891,RENEW,,08/15/2014,04/01/2016,N,10/16/2014,10/15/2016,04/01/2016,04/01/2016,AAI,,38,41.951315556,-87.67858578,"(41.95131555606832, -87.67858578019546)"
1144216-20070516,1804790,147,63,WALGREEN CO.,Walgreens # 05192,9148 S COMMERCIAL AVE 1ST,CHICAGO,IL,60617,10,25,10-25,4,1010,Limited Business License,,,1144216,RENEW,,03/23/2007,05/10/2007,N,05/16/2007,05/15/2008,05/10/2007,05/11/2007,AAI,,5,41.728621736,-87.551366466,"(41.72862173556932, -87.55136646594693)"
2488345-20160830,2488345,409564,1,"BURKS HEATING AND COOLING SOLUTIONS, LLC","BURKS HEATING AND COOLING SOLUTIONS, LLC",5722 S WOOD ST 1ST,CHICAGO,IL,60636,15,35,15-35,7,4404,Regulated Business License,674,Home Repair Services (Home Occ),2488345,ISSUE,08/30/2016,08/30/2016,08/30/2016,N,08/30/2016,09/15/2018,08/30/2016,08/30/2016,AAI,,,41.78961679,-87.669471996,"(41.78961679000226, -87.66947199630827)"
22308-20030816,1479006,29481,1,BELL OIL TERMINAL INC,Bell Oil Terminal LLC,3741 S PULASKI RD  1,CHICAGO,IL,60623,14,,14-,8,1010,Limited Business License,,,22308,RENEW,,03/05/2004,03/22/2004,N,08/16/2003,08/15/2004,03/25/2004,04/16/2004,AAI,,,41.82531993,-87.723959997,"(41.82531992987547, -87.72395999659746)"
2488318-20160830,2488318,85538,20,"JAM PRODUCTIONS, LTD.",9/7/16 Concert with Andrew Bird,201 E RANDOLPH ST,CHICAGO,IL,60601,42,44,42-44,1,4409,Itinerant Merchant,723,"Organizer of Vendors That Sell for Retail at a Trade Show, Exhibition or Convention",2488318,ISSUE,08/30/2016,08/30/2016,08/30/2016,N,08/30/2016,09/07/2016,08/30/2016,08/30/2016,AAI,,,41.884167384,-87.622250042,"(41.884167384339136, -87.62225004170132)"
2354707-20160916,2482568,393149,1,ANGELINE R. MC CARTHY,ANGELINE R. MC CARTHY,17707 S HARLEM ST 1,TINLEY PARK,IL,60477,,,,,4406,Peddler License,915,"Street Performer, Moving Along the Public Way (Special)",2354707,RENEW,,07/15/2016,08/30/2016,N,09/16/2016,09/15/2018,,08/30/2016,AAI,,,,,